{ "meta" : { "count" : 58,
      "description" : "API method for accessing meetup rsvps",
      "id" : "",
      "lat" : "",
      "link" : "http://api.meetup.com/rsvps/",
      "lon" : "",
      "method" : "Rsvps",
      "next" : "",
      "title" : "Rsvps for meetups",
      "total_count" : 58,
      "updated" : "2009-06-23 12:18:44 EDT",
      "url" : "http://api.meetup.com/rsvps/?order=name&key=###&event_id=##&page=200&resource=%2Frsvps.json%2F&format=json&offset=0"
    },
  "results" : [ { "answers" : [ "Bill Gates" ],
        "city" : "New York",
        "comment" : "",
        "coord" : "40.0",
        "country" : "us",
        "created" : "Fri Jun 05 05:32:37 EDT 2009",
        "guests" : "0",
        "link" : "http://www.meetup.com/members/####",
        "lon" : "-73.0",
        "name" : "Bill Gates",
        "response" : "maybe",
        "state" : "NY",
        "updated" : "Fri Jun 05 05:32:37 EDT 2009",
        "zip" : "10003"
      },
      { "answers" : [ "Barak Obama, Mohamed Ahmadinejad" ],
        "city" : "New York",
        "comment" : "",
        "coord" : "40.0",
        "country" : "us",
        "created" : "Wed Jun 10 13:36:25 EDT 2009",
        "guests" : "1",
        "link" : "http://www.meetup.com/members/####",
        "lon" : "-74.0",
        "name" : "Barak Obama",
        "response" : "yes",
        "state" : "NY",
        "updated" : "Wed Jun 10 13:36:25 EDT 2009",
        "zip" : "10012"
      },
      { "answers" : [ ],
        "city" : "New York",
        "comment" : "",
        "coord" : "40.0",
        "country" : "us",
        "created" : "Wed Jun 10 13:36:25 EDT 2009",
        "guests" : "0",
        "link" : "http://www.meetup.com/members/####",
        "lon" : "-74.0",
        "name" : "Organizer Name",
        "response" : "yes",
        "state" : "NY",
        "updated" : "Wed Jun 10 13:36:25 EDT 2009",
        "zip" : "10012"
      }
    ]
}